[{"stop_lat": 30.162883, "stop_timezone": null, "wheelchair_boarding": 0, "stop_code": "5873", "direction_id": 0, "stop_lon": -97.790317, "parent_station": null, "route_id": "801", "stop_url": null, "stop_sequence": 1, "stop_id": "5873", "stop_desc": "TURK & CULLEN", "stop_name": "SOUTHPARK MEADOWS STATION", "location_type": null, "platform_code": null, "zone_id": null}, {"stop_lat": 30.193449, "stop_timezone": null, "wheelchair_boarding": 0, "stop_code": "5996", "direction_id": 0, "stop_lon": -97.77731, "parent_station": null, "route_id": "801", "stop_url": null, "stop_sequence": 2, "stop_id": "5996", "stop_desc": "CIRCLE S & WILLIAM CANNON", "stop_name": "6601 CIRCLE S/WILLIAM CANNON", "location_type": null, "platform_code": null, "zone_id": null}, {"stop_lat": 30.202145, "stop_timezone": null, "wheelchair_boarding": 0, "stop_code": "559", "direction_id": 0, "stop_lon": -97.775515, "parent_station": null, "route_id": "801", "stop_url": null, "stop_sequence": 3, "stop_id": "559", "stop_desc": "CONGRESS & LITTLE TEXAS", "stop_name": "LITTLE TEXAS STATION (NB)", "location_type": null, "platform_code": null, "zone_id": null}, {"stop_lat": 30.222941, "stop_timezone": null, "wheelchair_boarding": 0, "stop_code": "5552", "direction_id": 0, "stop_lon": -97.76628, "parent_station": null, "route_id": "801", "stop_url": null, "stop_sequence": 4, "stop_id": "5552", "stop_desc": "BEN WHITE & CONGRESS", "stop_name": "SOUTH CONGRESS STATION BAY J", "location_type": null, "platform_code": null, "zone_id": null}, {"stop_lat": 30.230564, "stop_timezone": null, "wheelchair_boarding": 0, "stop_code": "5869", "direction_id": 0, "stop_lon": -97.759511, "parent_station": null, "route_id": "801", "stop_url": null, "stop_sequence": 5, "stop_id": "5869", "stop_desc": "CONGRESS & WOODWARD", "stop_name": "ST EDWARDS STATION (NB)", "location_type": null, "platform_code": null, "zone_id": null}, {"stop_lat": 30.239554, "stop_timezone": null, "wheelchair_boarding": 0, "stop_code": "4039", "direction_id": 0, "stop_lon": -97.752826, "parent_station": null, "route_id": "801", "stop_url": null, "stop_sequence": 6, "stop_id": "4039", "stop_desc": "CONGRESS & OLTORF", "stop_name": "OLTORF STATION (NB)", "location_type": null, "platform_code": null, "zone_id": null}, {"stop_lat": 30.248772, "stop_timezone": null, "wheelchair_boarding": 0, "stop_code": "4026", "direction_id": 0, "stop_lon": -97.749826, "parent_station": null, "route_id": "801", "stop_url": null, "stop_sequence": 7, "stop_id": "4026", "stop_desc": "CONGRESS & ELIZABETH", "stop_name": "SOCO STATION (NB)", "location_type": null, "platform_code": null, "zone_id": null}, {"stop_lat": 30.258306, "stop_timezone": null, "wheelchair_boarding": 0, "stop_code": "5942", "direction_id": 0, "stop_lon": -97.747938, "parent_station": null, "route_id": "801", "stop_url": null, "stop_sequence": 8, "stop_id": "5942", "stop_desc": "RIVERSIDE & BARTON SPRINGS", "stop_name": "210 RIVERSIDE/BARTON SPRINGS", "location_type": null, "platform_code": null, "zone_id": null}, {"stop_lat": 30.266218, "stop_timezone": null, "wheelchair_boarding": 0, "stop_code": "5868", "direction_id": 0, "stop_lon": -97.746056, "parent_station": null, "route_id": "801", "stop_url": null, "stop_sequence": 9, "stop_id": "5868", "stop_desc": "LAVACA & 3RD", "stop_name": "REPUBLIC SQUARE STATION (NB)", "location_type": null, "platform_code": null, "zone_id": null}, {"stop_lat": 30.27042, "stop_timezone": null, "wheelchair_boarding": 0, "stop_code": "2606", "direction_id": 0, "stop_lon": -97.74444, "parent_station": null, "route_id": "801", "stop_url": null, "stop_sequence": 10, "stop_id": "2606", "stop_desc": "LAVACA & 8TH", "stop_name": "AUSTIN HISTORY CENTER STATION (NB)", "location_type": null, "platform_code": null, "zone_id": null}, {"stop_lat": 30.275587, "stop_timezone": null, "wheelchair_boarding": 0, "stop_code": "591", "direction_id": 0, "stop_lon": -97.742558, "parent_station": null, "route_id": "801", "stop_url": null, "stop_sequence": 11, "stop_id": "591", "stop_desc": "LAVACA & 13TH", "stop_name": "CAPITOL STATION (NB)", "location_type": null, "platform_code": null, "zone_id": null}, {"stop_lat": 30.2793, "stop_timezone": null, "wheelchair_boarding": 0, "stop_code": "4657", "direction_id": 0, "stop_lon": -97.74119, "parent_station": null, "route_id": "801", "stop_url": null, "stop_sequence": 12, "stop_id": "4657", "stop_desc": "LAVACA & 17TH", "stop_name": "MUSEUM STATION (NB)", "location_type": null, "platform_code": null, "zone_id": null}, {"stop_lat": 30.286129, "stop_timezone": null, "wheelchair_boarding": 0, "stop_code": "5865", "direction_id": 0, "stop_lon": -97.741596, "parent_station": null, "route_id": "801", "stop_url": null, "stop_sequence": 13, "stop_id": "5865", "stop_desc": "GUADALUPE & WEST MALL UT", "stop_name": "UT WEST MALL STATION (NB)", "location_type": null, "platform_code": null, "zone_id": null}, {"stop_lat": 30.289298, "stop_timezone": null, "wheelchair_boarding": 0, "stop_code": "5864", "direction_id": 0, "stop_lon": -97.741363, "parent_station": null, "route_id": "801", "stop_url": null, "stop_sequence": 14, "stop_id": "5864", "stop_desc": "GUADALUPE & DEAN KEETON", "stop_name": "UT DEAN KEETON STATION (NB)", "location_type": null, "platform_code": null, "zone_id": null}, {"stop_lat": 30.304418, "stop_timezone": null, "wheelchair_boarding": 0, "stop_code": "606", "direction_id": 0, "stop_lon": -97.73695, "parent_station": null, "route_id": "801", "stop_url": null, "stop_sequence": 15, "stop_id": "606", "stop_desc": "GUADALUPE & 39TH", "stop_name": "HYDE PARK STATION (NB)", "location_type": null, "platform_code": null, "zone_id": null}, {"stop_lat": 30.314816, "stop_timezone": null, "wheelchair_boarding": 0, "stop_code": "610", "direction_id": 0, "stop_lon": -97.732264, "parent_station": null, "route_id": "801", "stop_url": null, "stop_sequence": 16, "stop_id": "610", "stop_desc": "GUADALUPE & 46TH", "stop_name": "TRIANGLE STATION (NB)", "location_type": null, "platform_code": null, "zone_id": null}, {"stop_lat": 30.326309, "stop_timezone": null, "wheelchair_boarding": 0, "stop_code": "5862", "direction_id": 0, "stop_lon": -97.725951, "parent_station": null, "route_id": "801", "stop_url": null, "stop_sequence": 17, "stop_id": "5862", "stop_desc": "LAMAR & KOENIG", "stop_name": "BRENTWOOD STATION (NB)", "location_type": null, "platform_code": null, "zone_id": null}, {"stop_lat": 30.336928, "stop_timezone": null, "wheelchair_boarding": 0, "stop_code": "5860", "direction_id": 0, "stop_lon": -97.71927, "parent_station": null, "route_id": "801", "stop_url": null, "stop_sequence": 18, "stop_id": "5860", "stop_desc": "LAMAR & JUSTIN", "stop_name": "CRESTVIEW STATION (NB)", "location_type": null, "platform_code": null, "zone_id": null}, {"stop_lat": 30.349326, "stop_timezone": null, "wheelchair_boarding": 0, "stop_code": "5859", "direction_id": 0, "stop_lon": -97.711685, "parent_station": null, "route_id": "801", "stop_url": null, "stop_sequence": 19, "stop_id": "5859", "stop_desc": "LAMAR & RESEARCH", "stop_name": "NORTH LAMAR STATION", "location_type": null, "platform_code": null, "zone_id": null}, {"stop_lat": 30.362617, "stop_timezone": null, "wheelchair_boarding": 0, "stop_code": "2821", "direction_id": 0, "stop_lon": -97.697133, "parent_station": null, "route_id": "801", "stop_url": null, "stop_sequence": 20, "stop_id": "2821", "stop_desc": "LAMAR & RUNDBERG", "stop_name": "RUNDBERG STATION (NB)", "location_type": null, "platform_code": null, "zone_id": null}, {"stop_lat": 30.372083, "stop_timezone": null, "wheelchair_boarding": 0, "stop_code": "4543", "direction_id": 0, "stop_lon": -97.691817, "parent_station": null, "route_id": "801", "stop_url": null, "stop_sequence": 21, "stop_id": "4543", "stop_desc": "LAMAR & MASTERSON", "stop_name": "MASTERSON STATION (NB)", "location_type": null, "platform_code": null, "zone_id": null}, {"stop_lat": 30.379385, "stop_timezone": null, "wheelchair_boarding": 0, "stop_code": "4548", "direction_id": 0, "stop_lon": -97.687683, "parent_station": null, "route_id": "801", "stop_url": null, "stop_sequence": 22, "stop_id": "4548", "stop_desc": "LAMAR & KRAMER", "stop_name": "CHINATOWN STATION (NB)", "location_type": null, "platform_code": null, "zone_id": null}, {"stop_lat": 30.418199, "stop_timezone": null, "wheelchair_boarding": 0, "stop_code": "5304", "direction_id": 0, "stop_lon": -97.668243, "parent_station": null, "route_id": "801", "stop_url": null, "stop_sequence": 23, "stop_id": "5304", "stop_desc": "CENTER RIDGE & CENTER LINE", "stop_name": "TECH RIDGE BAY I", "location_type": null, "platform_code": null, "zone_id": null}]
